Year,City,Country,latitude,longitude,attack type,Target Type,Target Sub Type,Target,Weapon Type,Weapon sub type,Terrorist Organization,motive,summary,,,,
1975,Samastipur,India,25.863042,85.781004,Bombing or Explosion,Government (General),"Government Personnel (excluding police, military)",Lalit Narayan Mishra and a legislator,Explosives/Bombs/Dynamite,Unknown Explosive Type,Ananda Marga,Unknown,"1/2/1975: The Indian Railway Minister, Lalit Narayan Mishra, was assassinated in Samastipur, Bihar, India.  A bomb exploded at a rally that he was holding in the region, wounding LN Mishra, a legislator and two guards.  All four died of their injuries.  While the group Ananda Marga has been suspected of being involved in the attack, there have been no claims of responsibility and no convictions of individuals.",,,,
1997,Unknown,India,33.778175,76.576171,Bombing or Explosion,Transportation,Bus Station/Stop,A bus station in Kashmir,Explosives/Bombs/Dynamite,Vehicle,Muslim Rebels,"Specific motive is unknown; however, the blast occurred while officials were meeting in New Delhi to discuss territorial disputes regarding the majority Muslim Himalayan region","3/29/1997: Two explosions occurred at a bus station in the vicinity of Kashmir, Jammu and Kashmir, India.  The first explosion happened on or near a bus while the second explosion originated at a motor scooter parked outside of the station.  Two additional bombs were also located and defused in the vicinity of the station.  Eighteen people were killed and at least 53 were injured; in addition to the bus station, ten shops in the area were also damaged.  No group claimed responsibility for the incident; however, officials blame Muslim rebels.",,,,
1997,Dhalai district,India,23.846698,91.909924,Bombing or Explosion,Military,Military Unit/Patrol/Convoy,Border Patrol Guards,Explosives/Bombs/Dynamite,Land Mine,National Liberation Front of Tripura (NLFT),"While the motive for this attack is unknown, there were a number of tribal groups active in this region who were attempting to establish their own ""homeland"".","11/7/1997: A suspected anti-tank land mine exploded beneath two trucks carrying border guards in Raishyabari Dhalai, India.  20 were killed.  It is unknown how many were wounded.  Of the 20 killed, 10 were civilians.  While civil authorities claimed the perpetrator was unknown, the arm stated that it was the National Liberation Front of Tipura.",,,,
1997,Hyderabad,India,17.376812,78.487812,Bombing or Explosion,Private Citizens & Property,"Procession/Gathering (funeral, wedding, birthday, religious)","People leaving a party.  Wounded included Mohan Babu, a popular local movie star",Explosives/Bombs/Dynamite,Vehicle,Unknown,"While the motive for this attack is unknown, it is believed that it may have been due to a political rivalry involving Paritala Ravi.","11/19/1997: A car bomb exploded in Hyderabad in the province of Andhra Pradesh, India.  The explosion occurred outside of a movie premier, killed 23 people and wounded 31 others.  The extent of the property damage is unknown, however it is known that at least two cars were damaged.  The motives behind the attack are unclear and no one has ever claimed responsibility.",,,,
1998,New Delhi,India,28.632381,77.220004,Bombing or Explosion,Private Citizens & Property,Unnamed Civilian/Unspecified,Civilians in New Delhi,Explosives/Bombs/Dynamite,Time Fuse,Unknown,Unknown,"01/09/1998: At least 44 people were injured, two of them seriously, in a powerful bomb explosion in the central part of New Delhi, India. The blast occurred opposite the police headquarters in a small market between two government buildings. No one was killed in the attack, and no group claimed responsibility, but Islamic militants were suspected.",,,,
1998,Wandhama,India,33.778175,76.576171,Armed Assault,Private Citizens & Property,Religion Identified,Hindu Civilians in Wandhama village,Melee,Knife or Other Sharp Object,Unknown,Unknown,01/25/1998: Suspected Islamic separatists slaughtered 23 Hindus and torched parts of the Himalayan village of Wandhama in Jammu and Kashmir State in India.,,,,
1998,Nalbari district,India,26.444619,91.441053,Armed Assault,Police,"Police Building (headquarters, station, school)",Bargela Police outpost,Firearms,Automatic Weapon,United Liberation Front of Assam (ULFA),Unknown,"02/04/1998: A group of United Liberation Front of Assam (ULFA) militants on motorcycles attacked the Bargela Police Outpost and opened fire, killing three police personnel in Assam, India. The number of injured was unknown.",,,,
1998,Coimbatore,India,11.016845,76.955832,Bombing or Explosion,Police,Police Security Forces/Officers,Indian Police in Coimbatore,Explosives/Bombs/Dynamite,Unknown Explosive Type,Unknown,Unknown,"02/14/1998: Six suspected militants were killed when a bomb that they were about to hurl at police exploded prematurely in Coimbatore, India. No one was injured in the attack.",,,,
1998,Coimbatore,India,11.016845,76.955832,Bombing or Explosion,Private Citizens & Property,Race/Ethnicity Identified,Indian Civilians and property in Coimbatore,Explosives/Bombs/Dynamite,Vehicle,Al-Ummah,Unknown,"02/14/1998: Thirty-six people were killed and approximately 100 people injured in a series of car bomb explosions in Coimbatore, Tamil Nadu State, southern India. A total of 12 explosions occurred in several parts of the city within about 15 minutes. No one claimed responsibility for the blasts, but members of the militant group Al Ummah were reportedly responsible.",,,,
1998,Coimbatore,India,11.016845,76.955832,Bombing or Explosion,Private Citizens & Property,Race/Ethnicity Identified,Indian Civilians and property in Coimbatore,Explosives/Bombs/Dynamite,Vehicle,Al-Ummah,Unknown,"02/14/1998: Thirty-six people were killed and approximately 100 people injured in a series of car bomb explosions in Coimbatore, Tamil Nadu State, southern India. A total of 12 explosions occurred in several parts of the city within about 15 minutes.No one claimed responsibility for the blasts, but members of the militant group Al Ummah were reportedly responsible.",,,,
1998,Coimbatore,India,11.016845,76.955832,Bombing or Explosion,Private Citizens & Property,Race/Ethnicity Identified,Indian Civilians and property in Coimbatore,Explosives/Bombs/Dynamite,Vehicle,Al-Ummah,Unknown,"02/14/1998: Thirty-six people were killed and approximately 100 people injured in a series of car bomb explosions in Coimbatore, Tamil Nadu State, southern India. A total of 12 explosions occurred in several parts of the city within about 15 minutes. No one claimed responsibility for the blasts, but members of the militant group Al Ummah were reportedly responsible.",,,,
1998,Coimbatore,India,11.016845,76.955832,Bombing or Explosion,Private Citizens & Property,Race/Ethnicity Identified,Indian Civilians and property in Coimbatore,Explosives/Bombs/Dynamite,Vehicle,Al-Ummah,Unknown,"02/14/1998: Thirty-six people were killed and approximately 100 people injured in a series of car bomb explosions in Coimbatore, Tamil Nadu State, southern India. A total of 12 explosions occurred in several parts of the city within about 15 minutes. No one claimed responsibility for the blasts, but members of the militant group Al Ummah were reportedly responsible.",,,,
1998,Coimbatore,India,11.016845,76.955832,Bombing or Explosion,Private Citizens & Property,Race/Ethnicity Identified,Indian Civilians and property in Coimbatore,Explosives/Bombs/Dynamite,Vehicle,Al-Ummah,Unknown,"02/14/1998: Thirty-six people were killed and approximately 100 people injured in a series of car bomb explosions in Coimbatore, Tamil Nadu State, southern India. A total of 12 explosions occurred in several parts of the city within about 15 minutes. No one claimed responsibility for the blasts, but members of the militant group Al Ummah were reportedly responsible.",,,,
1998,Coimbatore,India,11.016845,76.955832,Bombing or Explosion,Private Citizens & Property,Race/Ethnicity Identified,Indian Civilians and property in Coimbatore,Explosives/Bombs/Dynamite,Vehicle,Al-Ummah,Unknown,"02/14/1998: Thirty-six people were killed and approximately 100 people injured in a series of car bomb explosions in Coimbatore, Tamil Nadu State, southern India. A total of 12 explosions occurred in several parts of the city within about 15 minutes. No one claimed responsibility for the blasts, but members of the militant group Al Ummah were reportedly responsible.",,,,
1998,Coimbatore,India,11.016845,76.955832,Bombing or Explosion,Private Citizens & Property,Race/Ethnicity Identified,Indian Civilians and property in Coimbatore,Explosives/Bombs/Dynamite,Vehicle,Al-Ummah,Unknown,"02/14/1998: Thirty-six people were killed and approximately 100 people injured in a series of car bomb explosions in Coimbatore, Tamil Nadu State, southern India. A total of 12 explosions occurred in several parts of the city within about 15 minutes. No one claimed responsibility for the blasts, but members of the militant group Al Ummah were reportedly responsible.",,,,
1998,Coimbatore,India,11.016845,76.955832,Bombing or Explosion,Private Citizens & Property,Race/Ethnicity Identified,Indian Civilians and property in Coimbatore,Explosives/Bombs/Dynamite,Vehicle,Al-Ummah,Unknown,"02/14/1998: Thirty-six people were killed and approximately 100 people injured in a series of car bomb explosions in Coimbatore, Tamil Nadu State, southern India. A total of 12 explosions occurred in several parts of the city within about 15 minutes. No one claimed responsibility for the blasts, but members of the militant group Al Ummah were reportedly responsible.",,,,
1998,Coimbatore,India,11.016845,76.955832,Bombing or Explosion,Private Citizens & Property,Race/Ethnicity Identified,Indian Civilians and property in Coimbatore,Explosives/Bombs/Dynamite,Vehicle,Al-Ummah,Unknown,"02/14/1998: Thirty-six people were killed and approximately 100 people injured in a series of car bomb explosions in Coimbatore, Tamil Nadu State, southern India. A total of 12 explosions occurred in several parts of the city within about 15 minutes. No one claimed responsibility for the blasts, but members of the militant group Al Ummah were reportedly responsible.",,,,
1998,Coimbatore,India,11.016845,76.955832,Bombing or Explosion,Private Citizens & Property,Race/Ethnicity Identified,Indian Civilians and property in Coimbatore,Explosives/Bombs/Dynamite,Vehicle,Al-Ummah,Unknown,"02/14/1998: Thirty-six people were killed and approximately 100 people injured in a series of car bomb explosions in Coimbatore, Tamil Nadu State, southern India. A total of 12 explosions occurred in several parts of the city within about 15 minutes. No one claimed responsibility for the blasts, but members of the militant group Al Ummah were reportedly responsible.",,,,
1998,Coimbatore,India,11.016845,76.955832,Bombing or Explosion,Private Citizens & Property,Race/Ethnicity Identified,Indian Civilians and property in Coimbatore,Explosives/Bombs/Dynamite,Vehicle,Al-Ummah,Unknown,"02/14/1998: Thirty-six people were killed and approximately 100 people injured in a series of car bomb explosions in Coimbatore, Tamil Nadu State, southern India. A total of 12 explosions occurred in several parts of the city within about 15 minutes. No one claimed responsibility for the blasts, but members of the militant group Al Ummah were reportedly responsible.",,,,
1998,Coimbatore,India,11.016845,76.955832,Bombing or Explosion,Private Citizens & Property,Race/Ethnicity Identified,Indian Civilians and property in Coimbatore,Explosives/Bombs/Dynamite,Vehicle,Al-Ummah,Unknown,"02/14/1998: Thirty-six people were killed and approximately 100 people injured in a series of car bomb explosions in Coimbatore, Tamil Nadu State, southern India. A total of 12 explosions occurred in several parts of the city within about 15 minutes. No one claimed responsibility for the blasts, but members of the militant group Al Ummah were reportedly responsible.",,,,
1998,Mumbai,India,19.075984,72.877656,Bombing or Explosion,Transportation,Train/Train Tracks/Trolley,A railway station in Mumbai,Explosives/Bombs/Dynamite,Time Fuse,Unknown,Unknown,"02/27/1998: A bomb, concealed in a briefcase, went off in a slum near a city railway station in Mumbai, India, killing two people and injuring five others. There was no claim of responsibility for the attack.",,,,
1998,Mumbai,India,19.075984,72.877656,Bombing or Explosion,Transportation,Train/Train Tracks/Trolley,A railway station in Mumbai,Explosives/Bombs/Dynamite,Time Fuse,Unknown,Unknown,"02/27/1998: A bomb killed one person and injured 13 others, seven of them seriously, at a railway station in the north of Mumbai, India. No group claimed responsibility for the attack.",,,,
1998,Virar,India,19.45067,72.812571,Bombing or Explosion,Transportation,Train/Train Tracks/Trolley,A railway station in Virar,Explosives/Bombs/Dynamite,Suicide (carried bodily by human being),Unknown,Unknown,"02/27/1998: One person died and another two were injured in a suicide bomb attack near a railway station in Virar, India, a Mumbai suburb about 35km north of the city. No group claimed responsibility for the attack.",,,,
1998,Thub,India,33.200294,74.730781,Armed Assault,Private Citizens & Property,Unnamed Civilian/Unspecified,"Residents of Thub Village, Pakistan",Firearms,Automatic Weapon,Unknown,Unknown,"04/18/1998: Unknown militants shot and killed thirteen people in Thub village, Pakistan. The attackers fired indiscriminately causing a number of injuries and damage to the village.",,,,
1998,Udhampur district,India,32.925224,75.135264,Armed Assault,Private Citizens & Property,Unnamed Civilian/Unspecified,"Residents of Barankot, India",Firearms,Automatic Weapon,Unknown,Unknown,"04/22/1998: Unknown militants entered the village of Barankot, India, barged into three houses and fired at the residents. A number of people were injured, 26 people were killed, and some of the houses were damaged.",,,,
1998,Surankot,India,33.639869,74.263416,Armed Assault,Private Citizens & Property,Race/Ethnicity Identified,Indian civilians of the Punch District,Firearms,Unknown Gun Type,Unknown,Unknown,"05/05/1998: Unnamed militants attacked the house of a retired forest department official in Surankot town of Punch District, Jammu and Kashmir State, India, killing four civilians.",,,,
1998,Doda district,India,33.14575,75.548049,Armed Assault,Private Citizens & Property,Race/Ethnicity Identified,Indian civilians of the Doda District,Firearms,Unknown Gun Type,Unknown,Unknown,"05/05/1998: Unnamed militants attacked and killed five members of a funeral procession in Dhakikot in the Doda District, Jammu and Kashmir State, India.",,,,
1998,Chapnali,India,33.778175,76.576171,Armed Assault,Private Citizens & Property,"Procession/Gathering (funeral, wedding, birthday, religious)",Hindu Wedding Party,Firearms,Automatic Weapon,Unknown,Unknown,"06/19/1998: Five men with automatic rifles ambushed a group of Hindu revelers returning from a wedding in Chapnali, Kashmir, India, killing 25 people and injuring six. The gunmen emerged from the woods as the wedding party was resting by a stream. Police officials blamed Pakistan-backed Islamic separatists. None of Kashmir's separatist groups claimed responsibility.",,,,
1998,Kokrajhar District,India,26.398022,90.269415,Armed Assault,Police,Police Security Forces/Officers,Indian Policemen in Kokrajhar District,Firearms,Automatic Weapon,Unknown,Unknown,"07/17/1998: Bodo militants attacked Assam policemen in the Kokrajhar District, India, killing all seven policemen.",,,,
1998,Chanapora,India,34.033703,74.808308,Armed Assault,Private Citizens & Property,Unnamed Civilian/Unspecified,Citizens of Channa,Firearms,Unknown Gun Type,Unknown,Unknown,"07/28/1998: Unknown perpetrators attacked the village of Channa, India, killing eight and wounding three.",,,,
1998,Swaram,India,33.778175,76.576171,Armed Assault,Private Citizens & Property,Unnamed Civilian/Unspecified,Citizens of Swaran,Firearms,Unknown Gun Type,Unknown,Unknown,"07/28/1998: Unknown perpetrators attacked the village of Sarwan, India, killing nine and wounding five.",,,,
1998,Dhamdhama,India,26.556685,91.479862,Bombing or Explosion,Private Citizens & Property,Marketplace/Plaza/Square,Civilians at the Dhamdhama weekly market,Explosives/Bombs/Dynamite,Remote Trigger,Bodo Liberation Tigers (BLT),Unknown,"07/29/1998: The Bodo Liberation Tiger Force was suspected of planting a bomb that exploded at the Dhamdhama weekly market, killing eleven and wounding twenty-nine others.",,,,
1998,Mainaopuri,India,26.200604,92.937574,Bombing or Explosion,Private Citizens & Property,Unnamed Civilian/Unspecified,Bodo Villagers,Explosives/Bombs/Dynamite,Unknown Explosive Type,Unknown,Unknown,"07/29/1998: Santhal tribe members attacked Bobo villagers in two related incidents, resulting in a total of 11 deaths. In this case, the village of Mainaopuri, India was attacked.",,,,
1998,Kokrajhar,India,26.398022,90.269415,Armed Assault,Private Citizens & Property,Unnamed Civilian/Unspecified,Bodo Villagers,Melee,Blunt Object,Unknown,Unknown,"07/29/1998: Santhal tribe members attacked Bobo villagers in two related incidents, resulting in a total of 11 deaths. In this case, the village of Dimaguri, India was attacked.",,,,
1998,Amarpur,India,23.519468,91.654209,Armed Assault,Private Citizens & Property,Unnamed Civilian/Unspecified,"Civilians in Amarpur, India",Firearms,Unknown Gun Type,National Liberation Front of Tripura (NLFT),Unknown,"08/02/1998: National Liberation Front of Tripura (NLFT) extremists killed three people and abducted one person from Amarpur, India. The outcome of the kidnapping was not disclosed in reports.",,,,
1998,Kalaban,India,32.501944,76.021667,Armed Assault,Business,Construction,Housing road construction laborers in Kalabanh,Firearms,Automatic Weapon,Unknown,Unknown,"08/03/1998: Unknown perpetrators armed with automatic weapons swooped in on housing road construction laborers while they were asleep in Kalabanh, India, killing 26 and injuring 11. No further information on this incident was provided.",,,,
1998,Satrandi,India,31.104829,77.17339,Armed Assault,Private Citizens & Property,Unnamed Civilian/Unspecified,"Civilians in Satrandi, India",Firearms,Unknown Gun Type,Unknown,Unknown,"08/03/1998: Unknown perpetrators shot dead five people, including Police Constable Shakti Singh, and injured three in Satrandi, India.",,,,
1998,Siala,India,33.778175,76.576171,Armed Assault,Private Citizens & Property,Political Party Member/Rally,"Relatives of Imtiaz, a militant of the Tehrik-e-Jihad group",Firearms,Unknown Gun Type,Hizbul Mujahideen (HM),Unknown,"08/03/1998: Assailants entered the village of Siala, India, and killed 19 people. The victims of the attack were all relatives of Imtiaz, a suspected member o fthe Hizb-ul-Mujahidin (HM) group. Police suspected that militants from Hizb-ul-Mujahidin (HM) group were responsible for the attack.",,,,
1998,Srinagar,India,34.083658,74.797368,Bombing or Explosion,Police,Police Security Forces/Officers,"Kashmir Police in Srinagar, India",Explosives/Bombs/Dynamite,Grenade,Unknown,Unknown,"08/04/1998: Unknown perpetrators lobbed a grenade at a police vehicle in Kashmir's capital, Srinagar, in India. The grenade missed the target and wounded seven bystanders.",,,,
1998,Udhampur district,India,32.925224,75.135264,Armed Assault,Private Citizens & Property,Religion Identified,"Hindus in Balmatkote, India",Firearms,Unknown Gun Type,Unknown,Unknown,"08/04/1998: Unknown perpetrators shot three Hindus and set fire to seven homes in Balmatkote, India. No further information was provided on this incident.",,,,
1998,Unknown,India,33.778175,76.576171,Armed Assault,Private Citizens & Property,Unnamed Civilian/Unspecified,"Civilians in Kashmir, India",Firearms,Unknown Gun Type,Unknown,Unknown,08/04/1998: Nineteen people were shot and killed by unknown assailants in Jammu and Kashmir State in India. It was thought that the victims were relatives of militants from the Hizb-ul-Mujahidin (HM) group and therefore were probably killed by a rival militant group.,,,,
1998,Vizianagaram district,India,18.106658,83.395551,Armed Assault,Police,Police Security Forces/Officers,"Indian Police officers in Kuppuguda, India",Firearms,Unknown Gun Type,People's War Group (PWG),Unknown,"08/09/1998: Nine members of the People's War Group and three policemen were killed in an encounter at Kuppuguda village in Vijayanagaram District. The incident took place when the Group rebels, who were holding a meeting, fired at a patrol party.",,,,
1998,Guwahati,India,26.179222,91.753346,Bombing or Explosion,Military,"Military Personnel (soldiers, troops, officers, forces)","Indian soldiers at a railway station in Guwahati, India",Explosives/Bombs/Dynamite,Remote Trigger,Unknown,Unknown,"08/24/1998: Three people were killed and 20 injured when a bomb exploded at a railway station in Guwahati, India. The intended targets were Indian soldiers standing on the train platform. A police official said that although there were no claims of responsibility, the attackers were most likely either Bodo tribal guerrillas who were fighting for a homeland carved out of Assam or a radical Assamese group which aimed to drive out all non-Assamese people from the province.",,,,
1998,Saraikhola,India,26.209015,92.938442,Bombing or Explosion,Transportation,Bridge/Car Tunnel,Bridge on the Tarang River,Explosives/Bombs/Dynamite,Time Fuse,Unknown,Unknown,"09/25/1998: One person was killed when unknown perpetrators blew up a wooden bridge on the Tarang river near Saraikhola, by a remote-controlled device in Assam, India. No injuries were reported, and no group claimed responsibility for the attack.",,,,
1998,Srinagar,India,34.083658,74.797368,Bombing or Explosion,Military,"Military Personnel (soldiers, troops, officers, forces)",Kashmir Border Guards,Explosives/Bombs/Dynamite,Time Fuse,Unknown,Unknown,"09/25/1998: Two Border Security Force (BSF) personnel were killed and another seriously injured when a powerful bomb exploded inside a temporary post in Sringar, India. No group claimed responsibility for the attack, but Islamic militants were suspected.",,,,
1998,Bangwani,India,33.778175,76.576171,Bombing or Explosion,Private Citizens & Property,Political Party Member/Rally,"Relatives of a Pro-Government Militant in South Kashmir, India",Explosives/Bombs/Dynamite,Remote Trigger,Unknown,Unknown,"10/06/1998: Eleven people were killed from a land mine that exploded as their vehicle was traveling through Bangwani, a south Kashmir village in India. Officials suspected that the unknown assailants exploded the device by a remote-control. The victims were allegedly family members of Ghulam Nabi Jan, a prominent reformed militant.",,,,
1998,Chawmanu,India,23.851472,91.995504,Armed Assault,Violent Political Party,Party Official/Candidate/Other Personnel,Leader: Mr. Santi Kuma Tripura,Firearms,Unknown Gun Type,National Liberation Front of Tripura (NLFT),Unknown,"10/08/1998: Members of the National Liberation Front of Tripura (NLFT) shot and killed Mr. Santi Kumar Tripura, a senior Communist Party of India (Marxist) (CPI-M) leader, in Chawmanu, India.",,,,
1998,Unknown,India,23.940848,91.988153,Armed Assault,Violent Political Party,Party Official/Candidate/Other Personnel,Member: Mr. Lalit Devbarma,Melee,Knife or Other Sharp Object,National Liberation Front of Tripura (NLFT),Unknown,"10/08/1998: Communist Party of India (Marxist) (CPI-M) member, Mr. Lalit Devbarma, and six of his relatives were hacked to death in Tripura, India. Officials suspected the National Liberation Front of Tripura (NLFT) of carrying out this attack.",,,,
1998,Unknown,India,26.275268,92.953375,Armed Assault,Private Citizens & Property,Unnamed Civilian/Unspecified,"Residents of Assam, India",Firearms,Unknown Gun Type,Bodo Liberation Tigers (BLT),Unknown,"10/08/1998: Thirteen people were gunned down in Assam, India. Officials suspected that the Bodo Liberation Tigers (BLT) were responsible for this attack.",,,,
1998,Dantewada District,India,18.9,81.35,Bombing or Explosion,Police,Police Security Forces/Officers,"Indian Policemen in Dantewada, India",Explosives/Bombs/Dynamite,Land Mine,Naxalites,Unknown,"10/08/1998: Sixteen policemen were killed and fourteen injured from a land mine that exploded in Dantewada District, India. Following blast, suspected Naxalites ambushed the vehicle. No further information was provided on this attack.",,,,
1998,Tamahart,India,26.303465,89.851099,Armed Assault,Government (General),Government Building/Facility/Office,"Forestry Guards in Tamahat, India",Firearms,Unknown Gun Type,Unknown,Unknown,"10/10/1998: Six forestry guards from the Tamahat Forestry Authority were killed by suspected Santhal tribesmen in Tamahat, India. No further information was provided on this incident.",,,,
1998,Sonitpor district,India,26.678779,92.857672,Armed Assault,Private Citizens & Property,Unnamed Civilian/Unspecified,"Residents of Sonitpur, India",Firearms,Unknown Gun Type,National Democratic Front of Bodoland (NDFB),Unknown,"10/10/1998: The National Democratic Front of Bodoland (NDFB) was suspected for using firearms to attack residents of Sonitpur, India. The attack killed five people and injured five others.",,,,
1998,Gelnel,India,25.209087,93.817886,Armed Assault,Transportation,Bus (excluding tourists),"Civilians traveling on two passenger buses, escorted by Manipur Rifles personnel",Firearms,Automatic Weapon,Unknown,Unknown,"10/16/1998: Suspected Kuki militants attacked two passenger buses, escorted by Manipur Rifles personnel, near Genel, India. Nine Naga villagers were killed and ten others injured. The buses sustained minor damage.",,,,
1998,Athiabari,India,26.398022,90.269415,Armed Assault,Private Citizens & Property,Unnamed Civilian/Unspecified,"Civilians in Kokrajhar District, India",Firearms,Automatic Weapon,Bodo Liberation Tigers (BLT),Unknown,"10/17/1998: Seven people were gunned down by Bodo Liberation Tigers (BLT) militants in Kokrajhar District, India, near the Athiabari relief camp. Officials stated that the victims were traveling to the Sapakata river to fish when they were suddenly attacked.",,,,
1998,Safa Pora,India,34.238199,74.660068,Bombing or Explosion,Military,"Military Personnel (soldiers, troops, officers, forces)","Indian Army troops in Safapura, India",Explosives/Bombs/Dynamite,Land Mine,Unknown,Unknown,"10/23/1998: An senior army official was killed and three soldiers seriously injured when their vehicle ran over a land mine planted by unidentified perpetrators in Safapura, Baramula District, India. The vehicle sustained major damages.",,,,
1998,Patacharkuchi,India,26.51313,91.257351,Armed Assault,Police,Police Security Forces/Officers,"Indian police officers in Patacharkuchi, India",Firearms,Unknown Gun Type,Bodo Liberation Tigers (BLT),Unknown,"11/07/1998: Six people were killed and 24 were injured in a grenade attack and the subsequent crossfire between police and militants in Patacharkuchi, India. The Bodo Liberation Tigers (BLT) was suspected of the attack.",,,,
1998,Srinagar,India,34.083658,74.797368,Bombing or Explosion,Religious Figures/Institutions,0,"Hazratbal Shrine, in Srinagar",Explosives/Bombs/Dynamite,Grenade,Unknown,Unknown,"11/19/1998: Fifteen people were injured in a hand grenade attack at the Hazratbal Shrine, Kashmir's holiest Islamic shrine, in Srinagar, Jammu and Kashmir, India. No one claimed responsibility for the attack.",,,,
1998,Anantnag,India,33.733336,75.148983,Bombing or Explosion,Police,"Police Building (headquarters, station, school)","Police Station in Anantnag, India",Explosives/Bombs/Dynamite,Grenade,Unknown,Unknown,"11/21/1998: A grenade was lobbed at a police station in a crowded shopping area in Anantnag, Kashmir, India. The grenade, which missed its target, hit civilians, killing one and injuring 40 others. No further information was provided.",,,,
1998,Sriguhphara,India,33.816087,75.213843,Bombing or Explosion,Police,Police Patrol (including vehicles and convoys),"Two Indian patrol jeeps in Sriguhphara,  India",Explosives/Bombs/Dynamite,Land Mine,Unknown,Unknown,"11/24/1998: A land mine blew up two patrol jeeps of an anti-terrorist outfit in Sriguhphara, Kashmir, India. Six policemen were killed and four were seriously wounded. The perpetrators of this incident were unknown.",,,,
1998,Tinsukia district,India,27.491929,95.347833,Bombing or Explosion,Utilities,Oil,"Diesel pipeline between the Digboi oil refinery and Tinsukia, India",Explosives/Bombs/Dynamite,Unknown Explosive Type,United Liberation Front of Assam (ULFA),Unknown,"11/26/1998: A huge explosion destroyed a diesel pipeline between the Digboi oil refinery and Tinsukia, India. Immediately after the explosion, a fire broke out and the pipeline was blown off from both sides. Police suspected that the attack was perpetrated by the United Liberation Front of Assam, though no official claim of responsibility was issued by the group.",,,,
1998,Moranhat,India,27.178162,94.916653,Armed Assault,Police,Police Security Forces/Officers,"Central Industrial Security Force in Moranhat, India",Firearms,Unknown Gun Type,United Liberation Front of Assam (ULFA),Unknown,"11/27/1998: Five Central Industrial Security Force personnel were gunned down at the Moranhat police station in the Sibsagar district of Assam State, India. Police suspected that the attack was the handiwork of the United Liberation Front of Assam though no official claim of responsibility was issued by the group.",,,,
1998,Nalli,India,27.442264,94.258405,Bombing or Explosion,Utilities,Oil,"Oil pipeline near Nalli, India",Explosives/Bombs/Dynamite,Unknown Explosive Type,United Liberation Front of Assam (ULFA),Unknown,"11/27/1998: The United Liberation Front of Assam was suspected of bombing an oil pipeline, causing extensive damage to a nearby major railway bridge near Nalli, India. There were no casualties reported.",,,,
1998,Darrang District,India,26.459018,92.024804,Bombing or Explosion,Transportation,Bridge/Car Tunnel,"Major bridge in Darrang District, India",Explosives/Bombs/Dynamite,Unknown Explosive Type,United Liberation Front of Assam (ULFA),Unknown,"11/27/1998: The United Liberation Front of Assam were suspected of bombing a bridge in Darrang District, Assam State, India. There were no casualties reported in this incident.",,,,
1998,New Delhi,India,28.632381,77.220004,Assassination,Government (General),"Government Personnel (excluding police, military)",Chief Minister Prafulla Kumar Mahanta,Explosives/Bombs/Dynamite,Vehicle,Unknown,Unknown,"12/18/1998: Seven people were killed and forty-seven injured from a car bomb explosion aimed at killing the Chief Minister, Prafulla Kumar Mahant, in New Delhi, India. No group or individual claimed credit for this attack. Two of the perpetrators who were in the car died from the explosion.",,,,
1998,Guwahati,India,26.179222,91.753346,Bombing or Explosion,Police,Police Security Forces/Officers,"Policemen in Guwahati, India",Explosives/Bombs/Dynamite,Remote Trigger,United Liberation Front of Assam (ULFA),Unknown,"12/20/1998: Suspected United Liberation Front of Assam (ULFA) members attacked policemen Guwahati, India and ten died in the attack.",,,,
1999,Pattan,India,34.16047,74.555116,Bombing or Explosion,Police,"Police Building (headquarters, station, school)","Police complex in Pattan, India",Explosives/Bombs/Dynamite,"Projectile (rockets, mortars, RPGs, etc.)",Unknown,Unknown,"01/04/1999: Reported Islamic militants fired four missiles at a police complex in Pattan, 25 kilometers north of Srinagar, India. One police officer and his wife died as a result of the attack. The family's five-year-old child was seriously injured in the attack, which also damaged several other buildings in the complex.",,,,
1999,Manoharpur,India,22.232255,83.685368,Armed Assault,Private Citizens & Property,Religion Identified,"Christian Missionary and his two sons in Manoharpur, India",Incendiary,Arson/Fire,Vishwa Hindu Parishad (VHP),Unknown,"01/23/1999: In Manoharpur, India, an Australian missionary and his two sons were trapped in their car and burned to death by a mob of at least 14 men believed to be a supporters of Bajrang Dal, a Hindu fundamentalist organization.",,,,
1999,Allahabad,India,25.435801,81.846311,Unarmed Assault,Religious Figures/Institutions,Religious Figure,"Five Christian missionaries at a Hindu pilgrimage site in Allahabad, India",Melee,"Hands, Feet, Fists",Vishwa Hindu Parishad (VHP),"Police stated the missionaries -- all Indian nationals -- had been accused of trying to convert Hindus during a religious festival on the Ganges, one of the holiest Hindu pilgrimage sites.","01/25/1999: Radical Hindus attacked five Christian missionaries at a Hindu pilgrimage site in Allahabad, India. The victims, all Baptist missionaries, were dragged to the banks of the river Ganges and beaten by activists of the militant Bajrang Dal organization. All the missionaries were Indian nationals.",,,,
1999,Narayanpur,India,19.760181,78.705045,Armed Assault,Private Citizens & Property,Unnamed Civilian/Unspecified,"Naxalite (Maoist guerrilla) sympathizers in Narayanpur, India",Firearms,Unknown Gun Type,Ranbir Sena,To deter villagers from harboring or providing safe haven for Naxalites.,02/11/1999: Eleven civilians were killed and five wounded when 100 heavily-armed Ranvir Sena members attacked Narayanpur villagers who were suspected of harboring Maoist guerrillas (Naxalites). The outlawed Indian landowners' militia threatened more attacks on Maoist sympathizers if Naxalites continued their own campaign of terror.,,,,
1999,Tuilaphai,India,24.340933,93.587597,Armed Assault,Military,"Military Personnel (soldiers, troops, officers, forces)","Army soldiers traveling to Tuilaphai, India",Firearms,Unknown Gun Type,Unknown,Unknown,"02/13/1999: The leader of a medical Army team and eight soldiers were killed en route to a medical camp when their convoy was ambushed and sprayed with bullets by unidentified militants near Thinkeu, India. No further information was provided on this incident.",,,,
1999,Bhimpura,India,25.077604,84.914752,Armed Assault,Private Citizens & Property,Farmer,"Farmers in in Bhimpura, India",Firearms,Unknown Gun Type,Mazdoor Kisan Sangram Samiti (MKSS),Unknown,"03/03/1999: Four upper caste farmers were killed by members from Mazdoor Kisan Sangram Samiti (MKSS), a group affiliated with the Maoist Communist Center. The perpetrators carried out a night assault in Bhimpura, Jehanadad district, India. Other farmers were able to escape.",,,,
1999,Kurmol,India,24.663717,93.906269,Armed Assault,Military,Military Unit/Patrol/Convoy,"Indian Army patrol near Kurmol, in Chandel District, India",Firearms,Unknown Gun Type,Unknown,Unknown,"03/03/1999: Unknown perpetrators attacked an Indian Army patrol near Kurmol, India. Five of the perpetrators were killed and two soldiers were wounded. Reports did not indicate which group was involved in the attack, but both the National Socialist Council of Nagaland and the United National Liberation Front were active in the area.",,,,
1999,Haflong,India,25.163535,93.01364,Armed Assault,Police,Police Security Forces/Officers,"Four Central Reserve Police Force personnel in Haflong, India",Firearms,Unknown Gun Type,Other,Unknown,"03/13/1999: Four Central Reserve Police Force personnel were killed in an ambush by suspected extremists near Haflong, India. The policemen were traveling towards Haflong, the district headquarters, when they were attacked.",,,,
1999,Sinari,India,25.096074,85.313119,Armed Assault,Private Citizens & Property,Unnamed Civilian/Unspecified,"Civilians in Sinari, India",Firearms,Automatic Weapon,Maoist Communist Center (MCC),Unknown,"03/18/1999: Thirty-two people were killed and six were injured in Sinari, India. The attack was carried out by hundreds of members from the Maoist Communist Center.",,,,
1999,Unknown,India,23.164543,92.937574,Armed Assault,Police,Police Security Forces/Officers,"Police in Mizoram, India",Firearms,Automatic Weapon,People's Liberation Army (India),Unknown,"03/24/1999: Eight people, including six police officers were killed by suspected Peopleï¾’s Liberation Army (PLA) members in Mizoram State, India, along the border with Manipur state.",,,,
1999,Attamohanpara,India,23.940848,91.988153,Hostage Taking (Kidnapping),Private Citizens & Property,Unnamed Civilian/Unspecified,"Three civilians in Attamohanpara, India",Firearms,Unknown Gun Type,Unknown,Unknown,"03/27/1999: Unidentified perpetrators kidnapped three civilians in Attamohanpara, India. The dead bodies of the kidnapped victims were found one day later, on March 28, 1999.",,,,
1999,Udhampur district,India,32.925224,75.135264,Bombing or Explosion,Military,Military Barracks/Base/Headquarters/Checkpost,Badan Camp,Firearms,Automatic Weapon,Lashkar-e-Taiba (LeT),Unknown,"04/01/1999: Members of Lashkar-e-Taiba and Hizb-ul-Mujahidin (HM) attacked Badan Camp, an Indian Army camp at Tehsil Goal in the Udhampur district of Jammu and Kashmir state, using rockets, heavy machine guns, and long-rang grenade launchers. Thirty-one Indian soldiers were killed and two army trucks and an oil depot were destroyed. The Mujahideen were led by Lashkar-e-Taiba commander Abu Rizwan.",,,,
1999,Rajouri,India,33.371715,74.315313,Bombing or Explosion,Private Citizens & Property,Unnamed Civilian/Unspecified,Civilians and property in Rajauri,Explosives/Bombs/Dynamite,Unknown Explosive Type,Unknown,Unknown,"04/20/1999: Five people were killed, 33 were injured, and extensive property damage done when an explosive device went off in Rajauri, Jammu and Kashmir State, India. The perpetrators of this incident were unknown.",,,,
1999,Dadsara,India,33.904299,75.08549,Assassination,Government (General),Politician or Political Party Movement/Meeting/Rally,"Ghulam Hassan Bhat, a leader of the National Conference; Sheeraz Ahmad Bhat, Ghulam's son",Firearms,Automatic Weapon,Hizbul Mujahideen (HM),Unknown,"5/5/1999: Ghulam Hassan Bhat, a leader of the National Conference party, was shot and killed outside of his home in Tral town of south Kashmir, India.   Men disguised as army personnel called Bhat out of his house and fired upon him once he was outside.  Bhat was killed instantly; his son and a servant were injured.  The police believe that Hizbul Mujahideen is responsible for the attack.",,,,
1999,Lasana,India,33.702222,74.218611,Armed Assault,Police,Police Security Forces/Officers,Two Special Operation Group (SOG) Constables,Firearms,Unknown Gun Type,Unknown,Unknown,"05/10/1999: Four armed militants ambushed a joint police patrol in Lasana, Poonch District, Jammu and Kashmir State, India. Among those injured in the fighting were two Special Operation Group (SOG) Constables, one Central Reserve Police Force (CRPF) soldier and two Army soldiers. Two villagers were also killed in the incident. The gun battle lasted for two hours until darkness set in on the combatants.",,,,
1999,Guwahati,India,26.179222,91.753346,Armed Assault,Police,Police Security Forces/Officers,An Indian police group moving between Hathikulai and Guwahati,Firearms,Unknown Gun Type,United Liberation Front of Assam (ULFA),Unknown,"05/11/1999: Perpetrators attacked a police party that was moving from police headquarters in Hathikulai to Guwahati, India. Local officials suspected that the attackers belonged to the United Liberation Front of Assam.",,,,
1999,Kargil District,India,34.553852,76.134894,Armed Assault,Military,"Military Personnel (soldiers, troops, officers, forces)",Indian Army troops stationed in Kargil District,Firearms,Automatic Weapon,Other,Unknown,"05/12/1999: Suspected Islamic separatist fighters fired on Indian troops in a remote, mountainous part of the Kargil District in India, along the India-Pakistan border. Seven Indian soldiers and fifteen Islamic separatists died in the gun battle.",,,,
1999,Kupwara District,India,34.526179,74.254614,Assassination,Government (General),Politician or Political Party Movement/Meeting/Rally,Abdul Ahad Kar,Firearms,Unknown Gun Type,Unknown,Unknown,"05/15/1999: Abdul Ahad Kar, a prominent member of Kashmir's National Conference Party, was assassinated while strolling outside his fortified home in Kupwara District near the Indian border with Pakistan. Unidentified men shot the legislator, who had been an elected member of the ruling party since 1996.",,,,
1999,Velpur,India,16.149549,79.862011,Bombing or Explosion,Police,"Police Building (headquarters, station, school)",Two police stations located in the town of Velpur,Explosives/Bombs/Dynamite,Remote Trigger,People's War Group (PWG),"Police suspected that village-level militants carried out the attack on the direction of People's War Group leaders who were observing ""Anti-repression week"" in the district.","05/24/1999: Suspected naxalites belonging to the banned People's War Group bombed two police quarters that were under construction in the town of Velpur, India. There were no casualties in this incident.",,,,
1999,Chennai,India,13.08268,80.270718,Bombing or Explosion,Business,Hotel/Resort,Victoria Hostel in Chennai,Explosives/Bombs/Dynamite,Unknown Explosive Type,Other,Unknown,"05/30/1999: In one of several linked incidents, an explosion that was probably the result of a bomb caused extensive damage to the Victoria Hostel in Chennai, India. No one was injured or killed in the blast and no group claimed responsibility for the attack, but Islamic militants were suspected.",,,,
1999,Chennai,India,13.08268,80.270718,Bombing or Explosion,Police,"Police Building (headquarters, station, school)",The Police Commissioner's office in the Egmore neighborhood of Chennai,Explosives/Bombs/Dynamite,Time Fuse,Other,Unknown,"05/30/1999: In one of several linked incidents, a bomb was found near the Police Commissioner's office in Egmore, a neighborhood of Chennai, India. After being discovered, local authorities defused the bomb. No group claimed responsibility for the incident, but Islamic militants were suspected.",,,,
1999,Tiruchirappalli,India,10.815278,78.696389,Bombing or Explosion,Police,Police Security Forces/Officers,The Police Officers' Guest House on the Cantonment Police Station campus,Explosives/Bombs/Dynamite,Time Fuse,Other,Unknown,"05/30/1999: In one of several linked incidents, powerful time bomb contained in a metal box was found near the Police Officers' Guest House in the Cantonment Police Station campus in the heart of Tiruchi, India. There were no casualties and no group claimed responsibility for the incident, but Islamic militants were suspected.",,,,
1999,Coimbatore,India,11.016845,76.955832,Bombing or Explosion,Police,"Police Building (headquarters, station, school)",The Police quarters under construction at Variety Hall Road in Coimbatore,Explosives/Bombs/Dynamite,Time Fuse,Other,"Pamphlets found with the bomb indicated that the attackers wanted to punish police for torturing prisoners being held inside various prisons.  The pamphlets also went on to add that the government of India would be attacked if it allowed Salman Rushdie, a novelist, to enter the country.","05/30/1999: In one of several linked incidents, a large time-bomb placed inside a denim bag was found near the police quarters under construction at Variety Hall Road in Coimbatore, India. The bomb was discovered and defused before it could explode. No group claimed responsibility for the incident, but Islamic militants were suspected.",,,,
1999,Delhi,India,28.658188,77.227403,Bombing or Explosion,Police,"Police Building (headquarters, station, school)",Chandni Chowk Police Outpost,Explosives/Bombs/Dynamite,Time Fuse,Unknown,Unknown,"06/03/1999: An improvised explosive device (IED) went off at approximately 3:00pm local time near the Chandni Chowk police outpost in Delhi, India. The explosion occurred after an employee at the Ghantewalan Shahi Halwai brought a bag with the police, which had been left at the shop by two unidentified youths. The device exploded before bomb squad members reached the scene, injuring four policemen and twenty-three others. Authorities suspected that the perpetrators were Punjab-based militants with the backing of Pakistan's Inter-Services Intelligence (ISI).",,,,
1999,Kangan,India,34.264018,74.901055,Bombing or Explosion,Military,"Military Personnel (soldiers, troops, officers, forces)",Indian Army soldiers near Kangan,Explosives/Bombs/Dynamite,Land Mine,Unknown,Unknown,"06/09/1999: Six members of the Indian Army were killed and another was injured in an attack by unidentified militants near Kangan, Jammu and Kashmir State, India. The perpetrators used an improvised explosive device (IED) to blow up the truck in which the soldiers were traveling.",,,,
1999,Kupwara District,India,34.526179,74.254614,Bombing or Explosion,Police,Police Security Forces/Officers,Indian security personnel,Explosives/Bombs/Dynamite,Land Mine,Unknown,Unknown,"06/12/1999: Two security personnel were killed when their truck ran over a mine planted by unknown perpetrators along the Putshahi-Doniwari road in Kupwara District, Jammu and Kashmir Province, India.",,,,
1999,Srinagar,India,34.069832,74.809039,Bombing or Explosion,Private Citizens & Property,Marketplace/Plaza/Square,Ghanta Ghar Market at Lal Chowk in Srinagar,Explosives/Bombs/Dynamite,Grenade,Unknown,Unknown,"06/12/1999: Nine people, including a traffic police constable, were injured when unknown perpetrators exploded a grenade at Ghanta Ghar Market at Lal Chowk in Srinagar, Jammu and Kashmir Province, India. No casualties were reported in this incident.",,,,
1999,Shiliguri,India,26.682957,88.443417,Bombing or Explosion,Private Citizens & Property,Unnamed Civilian/Unspecified,Civilians at the New Jalpaiguri railway station,Explosives/Bombs/Dynamite,Unknown Explosive Type,United Liberation Front of Assam (ULFA),"Specific motive is unknown, but the police believe that Pakistan's secret service facilitated the attack, with the aid of United Liberation Front of Assam, in order to target Indian soldiers on their way to Kashmir.","6/22/1999:  A bomb exploded between platforms at the New Jalpaiguri railway station in New Jalpaiguri, India.   The explosion occurred around noon, ripping off the roof of the railway station, killing 10 and injuring an additional 80 individuals, including civilians and soldiers.  In addition, two cars of a passenger train were damaged; the train had pulled into the station minutes before the explosion.  Police believe that Pakistan's intelligence service was involved in the explosion.  It is also reported that United Liberation Front of Assam was responsible, but they deny involvement in the incident.",,,,
1999,Rajouri District,India,33.371715,74.315313,Bombing or Explosion,Military,"Military Personnel (soldiers, troops, officers, forces)",Indian Army soldiers,Explosives/Bombs/Dynamite,Land Mine,Unknown,Unknown,"06/26/1999: An Indian Major and four other Army personnel were injured in a landmine blast near a Forward Defense Location in the Noushera sector of Rajouri district, Jammu and Kashmir State, India. The perpetrators of this incident were unknown.",,,,
1999,Dholabari,India,26.494608,91.678189,Bombing or Explosion,Police,Police Patrol (including vehicles and convoys),Indian police vehicle in Dholabari,Explosives/Bombs/Dynamite,Vehicle,United Liberation Front of Assam (ULFA),Unknown,"06/28/1999: Suspected United Liberation Front of Assam members blew up a police vehicle in the village of Dholabari, Damrup district, Assam State, India, killing seven policemen and injuring ten others. The perpetrators triggered the explosion via remote control when the police patrol traveled over the bomb.",,,,
1999,Mohra Bachai,India,33.653794,74.297154,Unknown,Private Citizens & Property,Unnamed Civilian/Unspecified,Civilians in Morabachai,Unknown,0,Other,Unknown,"06/28/1999: A group of unidentified militants killed about fifteen civilians in Morabachai village, Jammu and Kashmir State, India. The victims included five minors and five females from the families of Mohammad Azam and Liaqat Ali.",,,,
1999,Sangam,India,33.827506,75.072066,Armed Assault,Private Citizens & Property,Laborer (General)/Occupation Identified,Migrant workers from Madhya Pradesh,Firearms,Unknown Gun Type,Other,Unknown,"06/29/1999: Unidentified militants gunned down twelve migrant laborers from Madhya Pradesh in Sangam, Jammu and Kashmir State, India. The perpetrators, armed with reportedly sophisticated weapons, forced their way in to the brick kiln where the migrants were sleeping and fired indiscriminately, killing all of the laborers.",,,,
1999,Chandigarh,India,30.733315,76.779418,Bombing or Explosion,Private Citizens & Property,"Public Area (garden, parking lot, garage, beach, public building, camp)",Parking Lot in Chandigarh,Explosives/Bombs/Dynamite,Unknown Explosive Type,Other,Unknown,"06/30/1999: An explosion in a parking lot near unnamed government offices in the main market square in Sector 34 of Chandigarh, India, injured two people and caused property damage to windows, buses, cars, and motorcycles. Authorities attributed the attack to militant separatists.",,,,
1999,Surankot,India,33.639869,74.263416,Armed Assault,Private Citizens & Property,Religion Identified,"Relatives of the Hizbul Mujahideen's top four leaders in Surankot, India",Firearms,Unknown Gun Type,Unknown,Unknown,"07/06/1999: In a series of attacks in Jammu and Kashmir, unknown assailants shot and killed 17 relatives of the Hizbul Mujahideen's top four leaders in Surankot, India.",,,,
1999,Anantnag,India,33.733336,75.148983,Armed Assault,Private Citizens & Property,Laborer (General)/Occupation Identified,"Hindu Laborers in in Anantnag, India",Firearms,Unknown Gun Type,Unknown,Unknown,"07/07/1999: In a series of attacks in Jammu and Kashmir, unknown assailants shot and killed 12 Hindu laborers in Anantnag, India.",,,,
1999,Poonch District,India,33.767001,74.092404,Armed Assault,Private Citizens & Property,Religion Identified,"Hindus in Poonch District, India",Firearms,Unknown Gun Type,Unknown,Unknown,"07/08/1999: In a series of attacks in Jammu and Kashmir, unknown assailants shot and killed nine Hindus in Poonch district, India.",,,,
1999,Madar,India,34.415556,74.656667,Hostage Taking (Kidnapping),Military,Military Barracks/Base/Headquarters/Checkpost,"A Campus of the Border Security Forces in Madar, India",Explosives/Bombs/Dynamite,Grenade,Lashkar-e-Taiba (LeT),Unknown,"07/13/1999: Militants of the Lashkar-e-Taiba (LeT) group claimed to have entered the residential complex of the Indian Border Security Forces and taken twelve hostages, after killing three officials. All the hostages were freed the next day and the body of one militant was recovered. Despite the claim of responsibility, officials, believed that the Al- Badr group was responsible for the attack.",,,,
1999,Bandipora,India,34.419539,74.63827,Armed Assault,Military,Military Barracks/Base/Headquarters/Checkpost,"A Campus of the Border Security Forces in Madar, India",Firearms,Automatic Weapon,Unknown,Unknown,"07/13/1999: Unidentified separatist militants armed with automatic weapons attacked a heavily guarded Indian security forces camp in Bandipora, Jammu and Kashmir, India. Five people were killed and two wounded in the incident.",,,,
1999,Budgam,India,34.021244,74.722282,Armed Assault,Police,Police Security Forces/Officers,"District Police Lines in Badgam, India",Explosives/Bombs/Dynamite,"Projectile (rockets, mortars, RPGs, etc.)",Unknown,Unknown,"07/18/1999: Four rocket-propelled grenades were fired, by unknown perpetrators, at the district police lines in Badgam, India. The rockets missed the target and exploded in mid-air without causing any damage or casualties.",,,,
1999,Lehota,India,33.778175,76.576171,Armed Assault,Police,Police Security Forces/Officers,"Lihota Village Defense Committee Members in Lihota, India",Firearms,Unknown Gun Type,Hizbul Mujahideen (HM),Unknown,"07/19/1999: In one of two related incidents, members of the Hizb-ul-Mujahidin (HM) ambushed Lihota village, India, and started firing indiscriminately at the homes of the Village Defense Committee members. Fifteen people were killed and five were injured in the attacks. Minor damage to the area was also sustained.",,,,
1999,Mandi,India,33.795977,74.25388,Armed Assault,Government (General),Politician or Political Party Movement/Meeting/Rally,"Employees of the Border Roads Organization in Mandi, India",Firearms,Automatic Weapon,Hizbul Mujahideen (HM),Unknown,"07/19/1999: In one of two related incidents, members of the Hizb-ul-Mujahidin (HM) attacked the engineering wing of the Border Roads Organization in Mandi, India. The attackers wounded one and killed four employees.",,,,
1999,Baramulla,India,34.205141,74.349494,Bombing or Explosion,Private Citizens & Property,Named Civilian,"Civilian at Auqaf Market, India",Explosives/Bombs/Dynamite,Grenade,Unknown,Unknown,"07/21/1999: At least three people were killed and fourteen others were injured when unidentified militants lobbed a hand grenade at the busy Auqaf Market in Baramulla, India. The attack caused minor damage to the area.",,,,
1999,Guwahati,India,26.179222,91.753346,Bombing or Explosion,Transportation,Bridge/Car Tunnel,"Bridge in Guwahati, India",Explosives/Bombs/Dynamite,Unknown Explosive Type,Unknown,Unknown,"07/22/1999: A bomb that was planted under a bridge in Guwahati, India, exploded and caused minor damage, but no casualties. In addition to this attack another bomb was detonated near the bridge. No group or individual claimed credit for this attack.",,,,
1999,Guwahati,India,26.179222,91.753346,Bombing or Explosion,Transportation,Bridge/Car Tunnel,"Bridge in Guwahati, India",Explosives/Bombs/Dynamite,Unknown Explosive Type,Unknown,Unknown,"07/22/1999: A bomb that was planted near a bridge in Guwahati, India, exploded. The attack caused minor damage, killed one person and injured thirteen others. In addition to this attack another bomb was detonated under the bridge. No group or individual claimed credit for this attack.",,,,
1999,Anantnag,India,33.733336,75.148983,Bombing or Explosion,Police,Police Patrol (including vehicles and convoys),"Anantnag Police Patrol near a bus stand in Anantnag, India",Explosives/Bombs/Dynamite,Grenade,Unknown,Unknown,"07/24/1999: Eight persons were injured when unidentified militants hurled a grenade at a police patrol in Anantnag, India. The grenade missed its target and exploded in a nearby crowded bus stand, which sustained minor damage. No group or individual claimed credit for this attack.",,,,
1999,Karbi Anglong District,India,25.960734,93.497468,Armed Assault,Military,Paramilitary,"Assam Police in Karbi Anglong District, India",Firearms,Unknown Gun Type,Unknown,Unknown,"07/27/1999: Seven people, including six Assam police personnel, were killed and six were injured in an ambush by unidentified armed militants in Karbi Anglong, India.",,,,
1999,Humahama,India,33.778175,76.576171,Bombing or Explosion,Police,Police Security Forces/Officers,"Special Task Force of the Jammu and Kashmir Police Force at Humahama, India",Explosives/Bombs/Dynamite,"Projectile (rockets, mortars, RPGs, etc.)",Unknown,Unknown,"07/29/1999: Unidentified assailants launched five rockets at a camp for the Jammu and Kashmir Special Task Force in Humahama, India. No one was injured in the attack, but the camp sustained minor damage.",,,,
1999,Unknown,India,10.850516,76.271083,Unarmed Assault,Religious Figures/Institutions,Religious Figure,Archbishop Mar Jacob Thoomkuzhy and an assisting priest.,Chemical,0,Unknown,Possibly committed by a rival religious faction intent on installing its own figure in the senior-most position of the church.,"08/02/1999:  Archbishop Mar Jacob Thoomkuzhy and an assisting priest were both killed in Kerala, India when their altar wine was poisoned.",,,,
1999,Guwahati,India,26.179222,91.753346,Hostage Taking (Kidnapping),Business,Farm/Ranch,"Gautam Roy, Manager of Chandighat Tea Estate",Firearms,Unknown Gun Type,Dima Halao Daoga (DHD),To obtain ransom money.,"08/03/1999: In a series of related incidents, ten extremists dressed in Army fatigues, abducted Chandighat Tea Estate Manager Gautam Roy, and General Manager H. Puri in Guwahati, India. Both were returned after a large ransom was paid, but reports did not the specify amount of the ransom or when the victims were released. Bodo militants in the North bank and the Dima Halao Daoga (DHD) were suspected of perpetrating the attacks.",,,,
1999,Guwahati,India,26.179222,91.753346,Hostage Taking (Kidnapping),Business,Farm/Ranch,"J. Sharma, Assistant Manager of Baladhan division of Burthol Tea Estate",Firearms,Unknown Gun Type,Dima Halao Daoga (DHD),To obtain ransom money.,"08/04/1999: In a series of related incidents, the assistant manager of the Baladhan division of Burthol Tea Estate, J. Sharma, was abducted In Guwahati, India, and then returned after a ransom was paid. Reports did not specify amount of ransom or when the victim was released. odo militants in the North bank and the Dima Halao Daoga (DHD) were suspected of perpetrating the attacks.",,,,
1999,Kotkapura,India,30.580791,74.824222,Hostage Taking (Kidnapping),Private Citizens & Property,Named Civilian,19-year-old son of Mr. Desa Singh Monga,Firearms,Unknown Gun Type,Khalistan Liberation Force,To make money for future terrorist attacks.,"08/05/1999: Members of the Khalistan Liberation Force (KLF) kidnapped the 19-year-old son of Mr. Desa Singh Monga, a petrol pump owner, and kept him at various places in Punjab, Haryana and Rajasthan. as the U.K.-based KLF leader, Sandip Singh, negotiated a large ransom. Three KLF militants were arrested and officials discovered that the KLF planned large-scale ransom kidnappings to fund future attacks. The victim was eventually released.",,,,
1999,Chaki Natnusa,India,34.426355,74.322821,Armed Assault,Military,Military Barracks/Base/Headquarters/Checkpost,"A Rashtriya Rifles post in Check-Natnusa village, India",Explosives/Bombs/Dynamite,"Projectile (rockets, mortars, RPGs, etc.)",Hizbul Mujahideen (HM),Unknown,"08/06/1999: Militants of the Harkat-ul-Ansar and Hizb-ul-Mujahidin (HM) launched a five-pronged attack on a 100-member Rashtriya Rifles Army post in Check-Natnusa village, India. Five soldiers and six militants were killed and thirteen others were injured. The assailants fired at least 20 rockets, light machine guns and other sophisticated weapons at the Army camp.",,,,
1999,Dhalai district,India,23.846698,91.909924,Hostage Taking (Kidnapping),NGO,Domestic NGO,"Four office-holders of the Rashtriya Swayamsevak Sangh: Shyamal Sengupta, Sudhamay Dutta, Dinendra Dey and Shubaken Chakravarty",Unknown,0,National Liberation Front of Tripura (NLFT),"Sources speculate that the kidnapping was ""an attempt to thwart the Sangh's growing influence in the north-eastern states"".  However, the National Liberation Front of Tripura (NLFT), who claimed responsibility, demanded that the Tripura State Rifles be disbanded or the hostages would be killed.","8/6/1999:  Four members of the Rashtriya Swayamsevak Sangh (RSS) were kidnapped while visiting the Vanvasi Kalyan Ashram in the Kanchanchara area of Tripura, India.  The kidnappers arrived at the Ashram seeking the individual in charge.  Failing to find him, the attackers took four senior members of the RSS in his stead.  The National Liberation Front of Tripura (NLFT) is believed to be responsible.  One source states that the NLFT demanded that the Tripura State Rifles (TSR) be disbanded or the hostages would be killed.",,,,
1999,Kupwara,India,34.526179,74.254614,Armed Assault,Military,Military Transportation/Vehicle (excluding convoys),"Army jeep in Kupwara, India",Firearms,Unknown Gun Type,Hizbul Mujahideen (HM),Unknown,"08/07/1999: A colonel and three of his bodyguards were killed by militants in an ambush on an Army jeep in Kupwara, India. Hizb-ul-Mujahidin (HM) claimed responsibility for this attack.",,,,
1999,Bijni,India,26.49598,90.702507,Bombing or Explosion,Private Citizens & Property,Unnamed Civilian/Unspecified,Civilians on a passenger train traveling between Bijni and Patilidaha stations,Explosives/Bombs/Dynamite,Unknown Explosive Type,United Liberation Front of Assam (ULFA),"Specific motive is unknown, but sources speculate that the incident is related to the strike that militants have called for in order to boycott Independence day celebrations","8/7/1999: A bomb exploded at the Pakajani Bridge between Bijni and Patilidaha stations in Barpeta district of lower Assam, India.  The suspected target, a passenger train, was running later than scheduled and was able to stop in time to avoid the blast.  A special security pilot engine that traveled in front of the passenger train was derailed in the incident.  No one was injured in the explosion.  The United Liberation Front of Assam is believed to be responsible.",,,,
1999,Bijni,India,26.49598,90.702507,Bombing or Explosion,Private Citizens & Property,Unnamed Civilian/Unspecified,Civilians on a passenger train traveling between Bijni and Patilidaha stations,Explosives/Bombs/Dynamite,Unknown Explosive Type,United Liberation Front of Assam (ULFA),"Specific motive is unknown, but sources speculate that the incident is related to the strike that militants have called for in order to boycott Independence day celebrations","8/7/1999: An improvised explosive device (IED) was discovered on section of railway track over Dulani river between Bijni and Chaprakata stations in the Barpeta district of lower Assam, India.  The suspected target, the Arunachal Express, was running later than scheduled and was able to stop in time for authorities to defuse the explosive.  The United Liberation Front of Assam is believed to be responsible.",,,,
1999,Trehgam,India,34.514753,74.173172,Bombing or Explosion,Military,Military Barracks/Base/Headquarters/Checkpost,"Army camp in Trehgam, India",Explosives/Bombs/Dynamite,"Projectile (rockets, mortars, RPGs, etc.)",Unknown,Unknown,"08/08/1999: Unidentified Islamic militants rained rockets and mortar fire on an Indian Army camp in Trehgam, India. One soldier was killed and six others were wounded in the attack on the camp, which was a brigade headquarters.",,,,
1999,Salakati,India,26.442601,90.353772,Bombing or Explosion,Transportation,Train/Train Tracks/Trolley,New Delhi-Guwahati Rajdhani Express travelling between Salakati and Kokrajhar,Explosives/Bombs/Dynamite,Unknown Explosive Type,Unknown,Unknown,"08/09/1999: A bomb exploded and derailed a freight train that was traveling between Salakati and Kokrajhar, India. Five people were injured in the explosion, which was believed to have been targeted at the New Delhi-Guwahati Rajdhani Express, but derailed the freight train instead.",,,,
1999,Sonitpor district,India,26.678779,92.857672,Bombing or Explosion,Military,"Military Personnel (soldiers, troops, officers, forces)","Soldiers in Sonitpur district, India",Explosives/Bombs/Dynamite,Unknown Explosive Type,National Democratic Front of Bodoland (NDFB),Unknown,"08/11/1999: Five Army personnel were killed and nine were injured in an explosion engineered by suspected activists of the National Democratic Front of Bodoland (NDFB) in Sonitpur District, India.",,,,
1999,Manasbal,India,34.256142,74.676269,Bombing or Explosion,Military,Military Barracks/Base/Headquarters/Checkpost,"Army camp at Manasbal, India",Explosives/Bombs/Dynamite,"Projectile (rockets, mortars, RPGs, etc.)",Unknown,Unknown,"08/14/1999: A group of heavily armed unidentified perpetrators launched a rocket attack at an Army camp at Manasbal, Jammu and Kashmir State, India, on the Srinagar-Bandipora road, killing three soldiers and wounding nine before escaping. No losses were reported on the perpetrators' side.",,,,
1999,Pahalgam,India,34.016075,75.31498,Bombing or Explosion,Military,Military Barracks/Base/Headquarters/Checkpost,"Army camp at Valgam, India",Explosives/Bombs/Dynamite,"Projectile (rockets, mortars, RPGs, etc.)",Unknown,Unknown,"08/14/1999: A group of heavily armed unidentified perpetrators launched a rocket attack at an Army camp at Valgam, Kupwara district, Jammu and Kashmir State, India. No casualties or damage were reported in this incident.",,,,
1999,Magam,India,34.091914,74.589914,Bombing or Explosion,Military,Military Barracks/Base/Headquarters/Checkpost,"Army camp at Magam, India",Explosives/Bombs/Dynamite,"Projectile (rockets, mortars, RPGs, etc.)",Unknown,Unknown,"08/14/1999: A group of heavily armed unidentified perpetrators launched a rocket attack at an Army camp at Magam, Badgam district, Jammu and Kashmir State, India.  No casualties or damage were reported in this incident.",,,,
1999,Rajpora,India,33.822873,74.853637,Bombing or Explosion,Military,Military Barracks/Base/Headquarters/Checkpost,"Army camp at Rajpora, India",Explosives/Bombs/Dynamite,"Projectile (rockets, mortars, RPGs, etc.)",Unknown,Unknown,"08/14/1999: A group of heavily armed unidentified perpetrators launched a rocket attack at an Army camp at Rajpora, Pulwama district, Jammu and Kashmir State, India.  No casualties or damage were reported in this incident.",,,,
1999,Devar Lolab,India,34.455549,74.449553,Bombing or Explosion,Military,"Military Personnel (soldiers, troops, officers, forces)","Soldiers in the Devar-Lolab area of Kupwara district, India",Explosives/Bombs/Dynamite,"Projectile (rockets, mortars, RPGs, etc.)",Unknown,Unknown,"08/14/1999: Two Army soldiers were killed and seven, including a junior commissioned officer, were injured when they were ambushed by perpetrators in the Devar-Lolab area of Kupwara district, Jammu and Kashmir State, India.",,,,
1999,Chenani,India,33.035542,75.285157,Bombing or Explosion,Police,"Police Building (headquarters, station, school)","Police Station in Chenani, India",Explosives/Bombs/Dynamite,"Projectile (rockets, mortars, RPGs, etc.)",Lashkar-e-Taiba (LeT),Unknown,"08/15/1999: In one of two attacks on this day, guerrillas fired automatic rifles and rocket launchers at a remote police station in Chenani, Jammu and Kashmir, India. The Pakistan-based Lashkar-e-Taiba (LeT) rebel group sent a fax to The Associated Press claiming responsibility for the attack.",,,,
1999,Chenani,India,33.035542,75.285157,Bombing or Explosion,Police,Police Patrol (including vehicles and convoys),"Police vehicle in Chenani, India",Explosives/Bombs/Dynamite,Land Mine,Lashkar-e-Taiba (LeT),Unknown,"08/15/1999: In one of two attacks on this day, guerrillas set off a land mine and opened fire on a police vehicle near Chenani, Jammu and Kashmir, India. The Pakistan-based Lashkar-e-Taiba (LeT) rebel group sent a fax to The Associated Press claiming responsibility for the attack.",,,,
1999,Cachar District,India,24.801749,92.944764,Hostage Taking (Kidnapping),Business,Farm/Ranch,Pathimara Tea Estate Assistant Manager Rajat Banerjee,Firearms,Unknown Gun Type,Dima Halao Daoga (DHD),To obtain ransom money.,"08/03/1999: In a series of related incidents, unidentified perpetrators abducted Pathimara Tea Estate Assistant Manager, Rajat Banerjee in Cachar District, India. Bodo militants in the North bank and the Dima Halao Daoga (DHD) were suspected of perpetrating the attacks. .Banerjee was killed in an exchange of fire between the kidnappers and the Army in NC Hills district on August 29, 1999.",,,,
1999,Nalbari District,India,26.44174,91.393395,Hostage Taking (Kidnapping),Business,Farm/Ranch,Two tea executives of the Fatemabad Tea Estate in Nalbari District,Firearms,Unknown Gun Type,Dima Halao Daoga (DHD),To obtain ransom money.,"08/03/1999: In a series of related incidents, two tea executives of the Fatemabad Tea Estate of Nalbari District, India, were kidnapped by Reports did not indicate how much ransom was demanded or whether the victims were released. Bodo militants in the North bank and the Dima Halao Daoga (DHD) were suspected of perpetrating the attacks.",,,,
1999,Manu,India,23.997294,91.9906,Hostage Taking (Kidnapping),Government (General),"Government Personnel (excluding police, military)","State government officials, including 12 rural body secretaries",Firearms,Unknown Gun Type,National Liberation Front of Tripura (NLFT),Unknown,"9/6/1999: 16 state officials were abducted in Manu, Tripura province, India.  Approximately 25 armed members of the National Liberation Front of Tripura (NLFT) abducted the officials while they were attending a meeting at the Block Development Office.",,,,
1999,Doda,India,33.14575,75.548049,Bombing or Explosion,Violent Political Party,Party Official/Candidate/Other Personnel,Members,Explosives/Bombs/Dynamite,Grenade,Unknown,Unknown,"09/09/1999: Unknown assailants threw a grenade at a jeep carrying members from the Bharatiya Janata Party in Doda, India. Eleven of the members were injured and the jeep was destroyed in the attack.",,,,
1999,Tangmang,India,34.05998,74.424533,Bombing or Explosion,Military,Paramilitary,"Indian Border Police jeep in Tangmang, India",Explosives/Bombs/Dynamite,Unknown Explosive Type,Unknown,Unknown,"09/15/1999: Unknown assailants bombed an Indian Border Police jeep in Tangmang, India. The attack, which occurred along the Indo-Tibetan border injured four soldiers and damaged the vehicle.",,,,
1999,Laudara,India,33.778175,76.576171,Bombing or Explosion,Military,Paramilitary,"Indian Border Police in Laudara, India",Explosives/Bombs/Dynamite,Unknown Explosive Type,Unknown,Unknown,"09/16/1999: One Indian Border Security Force soldier was killed and four others were injured from a bomb that exploded in Laudara, India. No group or individual claimed credit for this attack.",,,,
1999,Deepkarhar,India,25.096074,85.313119,Bombing or Explosion,Government (General),"Government Personnel (excluding police, military)","Poll officials in Deepkarhar, India",Explosives/Bombs/Dynamite,Land Mine,Unknown,Unknown,"09/25/1999: Two poll officials were killed in a landmine explosion in Deepkarhar, India. No further information was provided on this incident.",,,,
1999,Sursand District,India,26.644216,85.720507,Armed Assault,Violent Political Party,Party Official/Candidate/Other Personnel,Supporter,Firearms,Unknown Gun Type,Communist Party of India- Marxist-Leninist,Unknown,"09/25/1999: Three Communist Party of India-Marxist Leninist (CPI-ML) activists killed a Rashtriya Janata Dal (RJD) supporter in Sursand district, India. Angry villagers then overpowered the perpetrators and killed them.",,,,
1999,Pastun,India,33.992222,75.075833,Assassination,Government (General),Politician or Political Party Movement/Meeting/Rally,Peerzada Abdul Hamid,Explosives/Bombs/Dynamite,Land Mine,Unknown,Unknown,"09/26/1999: In Pastoon, India, unidentified perpetrators attempted to assassinate Peerzada Abdul Hamid, the Janata Dal (JD) candidate for the Anantnag parliamentary constituency, by blowing up his escort vehicle with a landmine. Eight Central Reserve Police Force (CRPF) personnel were seriously were injured in the attack.",,,,
1999,Unknown,India,23.940848,91.988153,Armed Assault,Military,Paramilitary,"Border security forces in Tripura, India",Firearms,Unknown Gun Type,National Liberation Front of Tripura (NLFT),Unknown,09/26/1999: Eight Border Security Force soldiers were killed by suspected National Liberation Front of Tripura (NLFT) rebels in an ambush near the Chawmanu-Talcher border in India. The perpetrators also looted arms and ammunition from the victims.,,,,
1999,Srinagar,India,34.083658,74.797368,Armed Assault,Government (General),Government Building/Facility/Office,Srinagar State Government building,Explosives/Bombs/Dynamite,"Projectile (rockets, mortars, RPGs, etc.)",Harakat ul-Mujahidin (HuM),Unknown,"09/29/1999: Harakat ul-Mujahidin (HuM) gunmen fired grenades at the state government building in Srinagar, India. Five security officers and a government clerk were killed in the blast and buildings in the area were damaged. As the gunmen fled, they got into a shootout with police at a nearby building and killed a constable during the firefight.",,,,
1999,Unknown,India,26.275268,92.953375,Bombing or Explosion,Military,Military Unit/Patrol/Convoy,Indian Security Forces on patrol in Assam,Explosives/Bombs/Dynamite,Remote Trigger,Other,The intent was to disrupt election process by intimidating voters.,"10/02/1999: In a series of attacks carried out on the eve of the fifth round of voting in the Indian federal elections, unidentified suspected militants detonated explosives planted under security forces vehicles in Assam, India, killing four security personnel and their driver.",,,,
1999,Kolkata,India,22.572646,88.363895,Bombing or Explosion,Government (General),Election-related,A school to be used as a polling station in Calcutta,Explosives/Bombs/Dynamite,Unknown Explosive Type,Other,The intent was to disrupt election process by intimidating voters.,"10/02/1999: In a series of attacks carried out on the eve of the fifth round of voting in the Indian federal elections, unidentified suspected militants detonated explosives at a school in Calcutta, India, which was to be used as a polling place. Two children were injured in the attack.",,,,
1999,Tinsukia District,India,27.491929,95.347833,Bombing or Explosion,Police,Police Security Forces/Officers,Central Reserve Police Force on duty in Upper Assam's Tinsukia district,Explosives/Bombs/Dynamite,Other Explosive Type,United Liberation Front of Assam (ULFA),The intent was to disrupt election process by intimidating voters.,"10/02/1999: In a series of attacks carried out on the eve of the fifth round of voting in the Indian federal elections, eight people, including four Central Reserve Police Force (CRFP) personnel, were killed and four others were injured when United Liberation Front of Assam militants exploded an improvised explosive device in Upper Assam's Tinsukia district in India.",,,,
1999,Kachugaon,India,26.37931,90.025394,Facility-Infrastructure Attack,Government (General),Election-related,Polling Station Number 88 in Kachugaon,Unknown,0,Bodo Liberation Tigers (BLT),The intent was to disrupt election process by intimidating voters.,"10/02/1999: In a series of attacks carried out on the eve of the fifth round of voting in the Indian federal elections, Bodo militants damaged Polling Station Number 88 at Kachugaon, in the Gossaigaon sub-division of Kokrajhar district, India. No one was injured in this attack.",,,,
1999,Henglep,India,24.48338,93.52365,Unknown,Military,Military Unit/Patrol/Convoy,Indian Security Forces on patrol on poll duty in Henglep,Unknown,0,Other,The intent was to disrupt election process by intimidating voters.,"10/02/1999: In a series of attacks carried out on the eve of the fifth round of voting in the Indian federal elections, unidentified militants ambushed a security convoy in Henglep, India, which was carrying personnel on poll duty. Two Army soldiers were killed and two others were seriously injured in the attack.",,,,
1999,Nagaon District,India,26.236916,92.608133,Assassination,Government (General),Politician or Political Party Movement/Meeting/Rally,"Kamal Nath, leader of Asom Gana Parishad (AGP)",Firearms,Unknown Gun Type,United Liberation Front of Assam (ULFA),The intent was to disrupt election process by intimidating voters.,"10/02/1999: In a series of attacks carried out on the eve of the fifth round of voting in the Indian federal elections, United Liberation Front of Assam (ULFA) militants killed Kamal Nath in central Assam's Nagaon district, India. Nath was a local Asom Gana Parishad (AGP) leader and the former president of the party's Sutargaon unit.",,,,
1999,Kathalguri,India,27.315444,95.286216,Bombing or Explosion,Police,Police Security Forces/Officers,Central Reserve Police Force checking polling stations,Explosives/Bombs/Dynamite,Remote Trigger,Unknown,The intent was to disrupt election process by intimidating voters.,"10/02/1999: In a series of attacks carried out on the eve of the fifth round of voting in the Indian federal elections, an improvised explosive device (IED), which was planted by unknown perpetrators under a culvert near Kathalguri, India, in Upper Assam's Tinsukia district. The IED exploded as a Central Reserve Police Force (CRPF) vehicle was passing the area. The police had been on their way to Dibrujan after checking certain polling stations in Bordumgsa.",,,,
1999,Tinsukia District,India,27.491929,95.347833,Bombing or Explosion,Police,Police Patrol (including vehicles and convoys),Central Reserve Police Force on patrol in Upper Assam's Tinsukia district,Explosives/Bombs/Dynamite,Unknown Explosive Type,United Liberation Front of Assam (ULFA),The intent was to disrupt election process by intimidating voters.,"10/02/1999: In a series of attacks carried out on the eve of the fifth round of voting in the Indian federal elections, nine Central Reserve Police Forces (CRFP) personnel were injured when United Liberation Front of Assam (ULAF) militants exploded an improvised explosive device in Upper Assam's Tinsukia district in India.",,,,
1999,Barpeta District,India,26.353393,91.104441,Armed Assault,Government (General),Election-related,Polling Station in Barpeta district,Firearms,Automatic Weapon,United Liberation Front of Assam (ULFA),The intent was to disrupt election process by intimidating voters.,"10/03/1999: In a series of attacks carried out on the day of the fifth round of voting in the Indian federal elections, militants from the United Liberation Front of Assam (ULFA) opened fire at a polling station in Barpeta district, Assam State, India, killing five police officers and injuring three.",,,,
1999,Dhalai District,India,23.919906,91.850304,Armed Assault,Military,Military Unit/Patrol/Convoy,A convoy of Indian Security Forces in Dhalai district,Firearms,Unknown Gun Type,All Tripura Tiger Force (ATTF),The intent was to disrupt election process by intimidating voters.,"10/03/1999: In a series of attacks carried out on the day of the fifth round of voting in the Indian federal elections, the All Tripura Tiger Force claimed responsibility for the ambush of a paramilitary convoy in Dhalai district, Tripura State, India, which killed five soldiers and two civilians.",,,,
1999,Unknown,India,24.663717,93.906269,Armed Assault,Government (General),Election-related,Polling station in Manipur,Firearms,Unknown Gun Type,Other,The intent was to disrupt election process by intimidating voters.,"10/03/1999: In a series of attacks carried out on the day of the fifth round of voting in the Indian federal elections, unidentified militants struck in Manipur State, India, killing sixteen people, including a deputy commandant and five Central Reserve Police Force personnel. Five others were also injured in the attack.",,,,
1999,Srinagar,India,34.083658,74.797368,Bombing or Explosion,Transportation,Bus (excluding tourists),An unnamed passenger bus in downtown Srinagar,Explosives/Bombs/Dynamite,Unknown Explosive Type,Other,Unknown,"10/07/1999: Indian security forces thwarted an attack by unidentified pro-Pakistani militants, who planted a powerful bomb on a passenger bus in downtown Srinagar, Jammu and Kashmir State, India. Army combat engineers successfully defused the bomb without incident.",,,,
1999,Jammu,India,32.726602,74.857026,Bombing or Explosion,Private Citizens & Property,Marketplace/Plaza/Square,Raghunath Bazaar in Jammu,Explosives/Bombs/Dynamite,Unknown Explosive Type,Unknown,Unknown,"10/23/1999: At approximately 7:30 pm local time, a powerful bomb explosion injured more than twenty people in Jammu, Jammu and Kashmir State, India, when it detonated near the Raghunath Bazaar. The perpetrators of this incident were unknown.",,,,
1999,Srinagar,India,34.083658,74.797368,Armed Assault,Military,"Military Personnel (soldiers, troops, officers, forces)",Badamibagh Cantonment,Firearms,Automatic Weapon,Lashkar-e-Taiba (LeT),Unknown,"11/03/1999: 3 armed men attacked the Badami Bagh Cantonment in Kashmir, India. Three died (including two of the attackers) and two were wounded in the attack.",,,,
1999,Kandrori,India,32.184316,75.669148,Bombing or Explosion,Transportation,Train/Train Tracks/Trolley,Puja Express Train 2404,Explosives/Bombs/Dynamite,Unknown Explosive Type,Unknown,Unknown,11/11/1999: Eleven people were killed and 100 injured when a bomb exploded on a passenger train heading to Delhi from Jammu. There was no indication who was responsible for the attack.,,,,
1999,Kandrori,India,32.184316,75.669148,Bombing or Explosion,Transportation,Train/Train Tracks/Trolley,"Puja Express train en route to Jaipur, India",Explosives/Bombs/Dynamite,Unknown Explosive Type,Unknown,Unknown,"11/13/1999: A bomb planted on a Puja Express train exploded while en route to Jaipur, India. Twelve people were killed and 51 injured. No group claimed credit for this attack.",,,,
1999,Panchavati,India,19.75148,75.713888,Armed Assault,Private Citizens & Property,Marketplace/Plaza/Square,"Civilians at a bazaar in Panchavati, India",Firearms,Automatic Weapon,All Tripura Tiger Force (ATTF),Unknown,"11/14/1999: 17 people were killed and 11 injured by All Tripura Tiger Force (ATTF) militants who fired at random upon a bazaar in Panchavati, India. Reports also indicated 10 people were kidnapped however there was no further details provided regarding the fate of the victims.",,,,
1999,Loto,India,24.105324,83.818132,Armed Assault,Terrorists/Non-State Militia,0,People's War Group member and his family,Melee,Knife or Other Sharp Object,Maoist Communist Center (MCC),Unknown,"11/18/1999: 200 suspected members of the Maoist Communist Center opened fire on the sleeping family of a rival group, Maoist People's War Group (PWG), and then beheaded the bodies in Loto, Palamu District, Jharkhand State, India. Twelve people died in the attack.",,,,
1999,Bangdar,India,23.940848,91.988153,Armed Assault,Police,Police Patrol (including vehicles and convoys),"South Tripura police convoy in Bangdar, India",Firearms,Automatic Weapon,National Liberation Front of Tripura (NLFT),Unknown,"11/22/1999: Eight police personnel were killed and five injured when National Liberation Front of Tripura (NLFT) militants ambushed a police convoy in Bangdar, India.",,,,
1999,Srinagar,India,34.083658,74.797368,Bombing or Explosion,Government (General),Politician or Political Party Movement/Meeting/Rally,"National Conference Party Headquarters in Srinagar, India",Explosives/Bombs/Dynamite,Unknown Explosive Type,Unknown,Unknown,"11/23/1999: A bomb hidden in a motor scooter exploded outside the a political party headquarters of the National Conference Party in Srinagar, India. Ten people were wounded in the attack. No further information was provided.",,,,
1999,Pattan district,India,34.16047,74.555116,Bombing or Explosion,Military,Military Barracks/Base/Headquarters/Checkpost,"Indian Army camp in Nehalpora Pattan, India",Explosives/Bombs/Dynamite,Remote Trigger,Unknown,Unknown,"11/25/1999: Militants detonated a powerful improvised explosive device (IED) near an Indian Army camp in Nehalpora Pattan, India. Three Army personnel were killed and three others critically wounded in the blast.",,,,
1999,Srinagar,India,34.083658,74.797368,Bombing or Explosion,Military,Military Barracks/Base/Headquarters/Checkpost,"Army compound in Haft Chinar District in Srinagar, India",Explosives/Bombs/Dynamite,Grenade,Unknown,Unknown,"11/27/1999: Unidentified assailants threw grenades at a military compound in the Haft Chinar area of Srinagar, India. The attack, which injured two young girls, coincided with several armed attacks on military personnel in the surrounding area resulting in civilian casualties and police and military fatalities.",,,,
1999,Bandipora,India,34.419807,74.63561,Armed Assault,Government (General),Politician or Political Party Movement/Meeting/Rally,"Mohammad Anwar Sheikh, the senior vice-president of Awami League",Firearms,Unknown Gun Type,Militants,Specific motive is unknown but the victim was involved with counter-insurgency before he became a politician,"11/27/1999: Militants stormed the house of Mohammad Anwar Sheikh, the senior vice-president of Awami League, in Bandipora area of Baramula District, India.  The attackers opened fire and threw grenades at the house; they also set the house on fire before fleeing.  Sheikh was killed, as was his two bodyguards.  His wife and daughter-in-law were seriously injured in the attack.  Sheikh had been a counter-insurgent before he turned to politics.",,,,
1999,Kohima district,India,25.6701,94.1077,Assassination,Government (General),"Government Personnel (excluding police, military)","S.C. Jamir, chief minister of Nagaland",Firearms,Unknown Gun Type,National Socialist Council of Nagaland,Unknown,"11/29/1999: Suspected members of the National Socialist Council of Nagaland (NSCN) attempted to assassinate S.C. Jamir, chief minister of Nagaland, while he was traveling in the vicinity of Phepima, Nagaland, India.  Jamir's convoy was ambushed and the rebels set off 14 explosions, damaging the convoy, before opening fire on the vehicles.  Jamir's security returned fire and two of his bodyguards were killed.  Jamir was not hurt in the attack.",,,,
1999,Krishnanagar,India,23.401281,88.501557,Armed Assault,Private Citizens & Property,Marketplace/Plaza/Square,"Civilians in a market in Krishnanagar, India",Firearms,Unknown Gun Type,Bengali Tiger Force (BTF),Unknown,"12/06/1999: A group of five Bengali Tigers Force (BTF) militants attacked a market in Krishnanagar, India. Two persons were killed and four others injured as a result of the attack.",,,,
1999,North Tripura district,India,24.079714,92.263039,Armed Assault,Private Citizens & Property,Marketplace/Plaza/Square,"Civilians at the market in Sipur, India",Firearms,Unknown Gun Type,National Liberation Front of Tripura (NLFT),Unknown,"12/08/1999: National Liberation Front of Tripura (NLFT) members attacked a market in Siripur, North Tripuri District, Tripura State, India, killing five and injuring nine. The militants set fire to structures used as an agriculture store and veterinary sub-centre while fleeing the scene.",,,,
1999,Rajampet,India,14.186479,79.151326,Bombing or Explosion,Transportation,Train/Train Tracks/Trolley,Rajampet Train Station in India,Explosives/Bombs/Dynamite,Other Explosive Type,People's War Group (PWG),The attack was reported to be carried out in retaliation for the killing of three fellow rebels by police.,"12/12/1999: The People's War Group (PWG) bombed the Rajampet train station in Andhra Pradesh, India. The assailants herded the station master and other officials out of the station before the bombing. The attack was reported to be carried out in retaliation for the killing of three fellow rebels by police.",,,,
1999,Patan,India,23.849325,72.126626,Bombing or Explosion,Police,"Police Building (headquarters, station, school)","Police Station in Patan, India",Explosives/Bombs/Dynamite,"Projectile (rockets, mortars, RPGs, etc.)",Hizbul Mujahideen (HM),Unknown,"12/15/1999: Hizb-ul-Mujahidin (HM) militants bombed a police station in Patan, Gujarat State, India, killing a Deputy Superintendent of Police, Kuldeep Singh, and an Army soldier in Patan. The camp was significantly damaged in the attack. Hizb-ul-Mujahidin (HM) took responsibility for the attack and claimed four more policemen were also killed in the attack.",,,,
1999,Dungiwatcha,India,34.312414,74.345243,Bombing or Explosion,Military,Paramilitary,"24 Rashtriya Rifles camp in Dengiwachi, India.",Explosives/Bombs/Dynamite,Grenade,Lashkar-e-Taiba (LeT),Unknown,"12/15/1999: An Indian soldier was killed when a group of about 20 suspected Lashkar-e-Taiba (LeT) militants attacked the 24 Rashtriya Rifles camp in Dengiwachi, India.",,,,
1999,Kammarpally,India,18.835472,78.509532,Bombing or Explosion,Private Citizens & Property,Unnamed Civilian/Unspecified,"Civilians in the house of Gopikishan, a leader of the Telegu Desam Party",Explosives/Bombs/Dynamite,Unknown Explosive Type,People's War Group (PWG),Unknown,"12/16/1999: Five people were killed in a bombing in Kamarapally, Nizamabad District, Andhra Pradesh State, India. The victims were tenants in the house of Gopikishan, a leader of the Telegu Desam Party that governs Andhra Pradesh. Police blamed the People's War Group (PWG) for this attack.",,,,
1999,Nizamabad District,India,18.510022,78.295308,Bombing or Explosion,Government (General),Politician or Political Party Movement/Meeting/Rally,"The home of Dasarath Reddy, Telugu Desam Party member",Explosives/Bombs/Dynamite,Unknown Explosive Type,People's War Group (PWG),Unknown,"12/20/1999: Maoist guerrillas bombed the house of a local politician in the southern Indian state of Andhra Pradesh. Police reported the People's War Group (PWG) blasted the house of Dasarath Reddy in the state's Nizamabad district after asking the occupants to leave the building. There were no reported injuries but the house was destroyed as a result of the attack. Reddy was a member of Andhra Pradesh's ruling Telugu Desam Party, whose members have been long targeted by the PWG.",,,,
1999,Anantnag,India,33.733336,75.148983,Bombing or Explosion,Government (General),"Government Personnel (excluding police, military)","Deputy Commissioner's office in Anantnag, Kashmir.",Explosives/Bombs/Dynamite,Grenade,Unknown,Unknown,"12/22/1999: At least ten people were injured when a grenade exploded outside a Deputy Commissioner's office in Anantnag, Kashmir. The grenade was aimed to blow up a security picket outside the office. The grenade missed its target and exploded on the road-side, wounding ten pedestrians. Ten were wounded in the attackthe .",,,,
1999,Jammu,India,32.726602,74.857026,Bombing or Explosion,Transportation,Bus Station/Stop,"Civilians in a bus terminal in Jammu, India",Explosives/Bombs/Dynamite,Unknown Explosive Type,Unknown,Unknown,"12/28/1999: At least one person was killed and two injured when a bomb planted by unknown militants exploded at a bus terminal in Jammu, India. Several surrounding buses were damaged due to the explosion.",,,,
1999,Srinagar,India,34.083658,74.797368,Armed Assault,Police,"Police Building (headquarters, station, school)","Police Headquarters in Srinagar, India",Explosives/Bombs/Dynamite,Grenade,Unknown,Unknown,"12/29/1999: Unidentified assailants fired on the police headquarters in Srinagar, India. Three rifle-launched grenades hit an army office next to the office of the anti-terrorist police headquarters and a fourth grenade hit the police office, but did not explode. No casualties were reported in the attack.",,,,
2000,Udhampur,India,32.925224,75.135264,Armed Assault,Police,"Police Building (headquarters, station, school)",The Central Reserve Police Force 68 battalion camp at Umorha Morh in Udhampur,Firearms,Unknown Gun Type,Lashkar-e-Taiba (LeT),Unknown,"01/01/2000: Members of Lashkar-e Taiba attacked the Central Reserve Police Force (CRPF) 68 battalion camp at Umorha Morhcamp in Udhampur, killing one and injuring two.",,,,
2000,Kakotibari,India,27.091373,95.023955,Bombing or Explosion,Utilities,0,An Oil and Natural Gas Commission pipeline at Kakotibari,Explosives/Bombs/Dynamite,Time Fuse,United Liberation Front of Assam (ULFA),Unknown,01/01/2000: An Oil and Natural Gas Commission (ONGC) pipeline was blown up with a time bomb in Kakotibari. It was suspected that the United Liberation Front of Assam was responsible. No one was killed or injured.,,,,
2000,Srinagar,India,34.083658,74.797368,Bombing or Explosion,Private Citizens & Property,Marketplace/Plaza/Square,A vegetable market in Srinagar,Explosives/Bombs/Dynamite,Land Mine,Unknown,Unknown,"01/03/2000: A bomb exploded at a vegetable market in Srinagar, Jammu and Kashmir State. Eighteen people were killed, fourteen civilians and four security personnel, and at lest thirty people were injured in this attack by unknown perpetrators.",,,,
2000,New Delhi,India,28.632381,77.220004,Bombing or Explosion,Transportation,Train/Train Tracks/Trolley,A passenger train at the Old Delhi train station,Explosives/Bombs/Dynamite,Other Explosive Type,Unknown,Unknown,01/06/2000: A bomb exploded on a passenger train stopped at the Old Delhi railway station. The perpetrators were unknown. Twenty-three people were injured but none seriously and the train compartment was significantly damaged.,,,,
2000,Unknown,India,16.690933,79.567945,Bombing or Explosion,Government (General),Politician or Political Party Movement/Meeting/Rally,"G. Sukhender Reddy, Telugu Desam Party Member of Parliament",Explosives/Bombs/Dynamite,Unknown Explosive Type,People's War Group (PWG),Unknown,01/07/2000: Six Maoist guerrillas from the Peopleï¾’s War Group attacked the house of the ruling Telugu Desam Party Member of Parliament G. Sukhender Reddy in Andhra Pradesh. The guerrillas dragged Reddyï¾’s mother out of the house before attacking it with explosive devices.,,,,
2000,Kaghaznagar,India,19.351868,79.481219,Bombing or Explosion,Police,"Police Building (headquarters, station, school)",The District Superintendent of Police office,Explosives/Bombs/Dynamite,Unknown Explosive Type,People's War Group (PWG),Unknown,"01/11/2000: Two policemen were killed and two injured when the People's War Group attacked with explosives the District Superintendent of Police camp office at Kagajnagar, Adilabad District.",,,,
2000,Khanabal,India,33.741093,75.129728,Armed Assault,Military,Military Barracks/Base/Headquarters/Checkpost,Rashtriya Rifles headquarters in Khannabal,Firearms,Unknown Gun Type,Lashkar-e-Taiba (LeT),Unknown,"01/12/2000: Pakistani group Lashkar-e Taiba claimed responsibility for an armed attack with grenades and guns on the Rashtriya Rifles headquarters in Khannabal. Around 15 soldiers were killed, two civilians, and three militants.",,,,
2000,Budgam District,India,34.021244,74.722282,Bombing or Explosion,Utilities,Electricity,Power transmission towers in Kashmir,Explosives/Bombs/Dynamite,Unknown Explosive Type,Lashkar-e-Taiba (LeT),Lashkar-e Taiba was protesting the government production of power in Kashmir that wasn't being distributed to Kashmiris.,01/16/2000: Two power transmission towers were blown up and the entire Budgam district in the Jammu and Kashmir state was without power. Lashkar-e Taiba claimed responsibility stating that the government was producing power in Kashmir that wasnï¾’t going to Kashmiris. No injuries reported.,,,,
2000,Jirania,India,23.826754,91.431903,Hostage Taking (Kidnapping),Private Citizens & Property,Unnamed Civilian/Unspecified,Residents in Tripura State,Firearms,Unknown Gun Type,National Liberation Front of Tripura (NLFT),Unknown,"01/16/2000: Four people from Jirania, Tripura State, including Jagdish Debbrama, former chairman of Tripura Tribal Autonomous District Council political and Joint Secretary of Tripura Upajati Juba Samity (TUJS), were kidnapped by armed extremists. The National Liberation Front of Tripura (NLFT) group was suspected.",,,,
2000,Unknown,India,26.275268,92.953375,Bombing or Explosion,Transportation,Train/Train Tracks/Trolley,Goods train in Assam,Explosives/Bombs/Dynamite,Land Mine,Unknown,Unknown,01/19/2000: Unknown militants blew up a goods train in the Indian state of Assam though a passenger train was the original target. At least ten cars of the train and more than 100 yards of track were damaged.,,,,
2000,Srinagar,India,34.064508,74.794461,Armed Assault,Military,Military Barracks/Base/Headquarters/Checkpost,Batmaloo Indian Army camp in Srinagar,Explosives/Bombs/Dynamite,Grenade,Other,Unknown,01/24/2000: Islamic militants attacked the Batmaloo Indian Army camp in Srinagar with grenades and gunfire. Two soldiers were killed and six soldiers were injured and two militants were killed.,,,,
2000,Doda,India,33.14575,75.548049,Assassination,Government (General),Politician or Political Party Movement/Meeting/Rally,"Muzaffar Hussain Beig, a congress leader",Explosives/Bombs/Dynamite,Grenade,Unknown,Unknown,"01/26/2000: An unsuccessful attempt was made to assassinate Congress leader Muzaffar Hussain Beig. Beig escaped uninjured, though one of his security guards was seriously injured. A grenade was thrown onto Beigï¾’s house in Doda, pierced the roof, and exploded inside the house. No group claimed responsiblity for the attack.",,,,
2000,Jammu,India,32.726602,74.857026,Bombing or Explosion,Government (General),Politician or Political Party Movement/Meeting/Rally,"Muslim legislator from the National Conference party, Javed Shah",Explosives/Bombs/Dynamite,"Projectile (rockets, mortars, RPGs, etc.)",Unknown,Unknown,"01/27/2000: At least two rockets were fired at the Jammu home of Muslim legislator from the National Conference party, Javed Shah. The unknown attackers and Shahï¾’s police protection fought a gunfight for a few hours after the attack.",,,,
2000,Jammu,India,32.726602,74.857026,Bombing or Explosion,Private Citizens & Property,Unnamed Civilian/Unspecified,Residents of Jammu,Explosives/Bombs/Dynamite,Unknown Explosive Type,Unknown,Unknown,"01/28/2000: A bomb hidden under a car exploded in downtown Jammu, destroying four cars and breaking the windows of nearby aparments. No group claimed responsibility for this attack.",,,,
2000,Unknown,India,23.940848,91.988153,Hostage Taking (Kidnapping),Private Citizens & Property,Vehicles/Transportation,Civilians traveling in a jeep along the Udaipur-Tainani road in Tripura,Firearms,Unknown Gun Type,Insurgents,Unknown,"1/31/2000: Armed ultras stopped a jeep at gunpoint on the Udaipur-Tainani road, in Tripura, India.  The assailants then kidnapped three people.",,,,
2000,Atharobola,India,23.610792,91.445885,Hostage Taking (Kidnapping),Private Citizens & Property,Vehicles/Transportation,Civilians traveling in a jeep at Atharobolla in Tripura,Firearms,Unknown Gun Type,Insurgents,Unknown,"1/31/2000: Unidentified armed insurgents stopped at jeep at Atharobolla in Tripura, India.  The assailants opened fire on the passengers, wounding two of them.  The assailants also kidnapped three of the passengers.",,,,
2000,Paharpur,India,23.485379,91.778227,Hostage Taking (Kidnapping),Private Citizens & Property,Unnamed Civilian/Unspecified,Civilians on lorries at Paharpur,Unknown,0,National Liberation Front of Tripura (NLFT),Unknown,"1/31/2000: Suspected members of the National Liberation Front of Tripura (NLFT) stopped two lorries on the Umarpur-Natunbazar road, at Paharpur, Tripura, India.  The insurgents abducted eight people, including the lorry drivers.",,,,
2000,Gaichta-Dudsunbala,India,33.778175,76.576171,Armed Assault,Military,"Military Personnel (soldiers, troops, officers, forces)","Indian Army soldiers in Gaichta-Dudsunbala, India",Firearms,Unknown Gun Type,Unknown,Unknown,"02/08/2000: Unidentified assailants attacked the Indian Army soldiers in Gaichta-Dudsunbala, India. Four of the attackers were killed in subsequent fighting between the soldiers and the militants.",,,,
2000,Bhaira,India,23.055626,88.252202,Bombing or Explosion,Transportation,Train/Train Tracks/Trolley,"Sealdah Express Train in Baira, near Calcutta, India",Explosives/Bombs/Dynamite,Unknown Explosive Type,Unknown,Unknown,"02/10/2000: Two people were killed and four wounded when a bomb exploded on the Sealdah Express Train in Baira, near Calcutta, India. No group or individual claimed credit for this attack.",,,,
2000,Souch Palpora,India,34.135101,74.495056,Armed Assault,Police,Police Security Forces/Officers,"Civilian special police, including Ghulam Mohammed Reshi and his daughter, who were aiding counter-insurgency efforts",Firearms,Unknown Gun Type,Guerrillas,Unknown,"2/10/2000: Suspected separatist guerrillas entered a house and opened fire in Palpora, Jammu and Kashmir, India.  Six people were killed in the incident, including two civilian special police officers who were aiding counter-insurgency efforts.  One of the officers is identified as Ghulam Mohammed Reshi; the other is his daughter.  No group has claimed responsibility for the attack.",,,,
